$GPGGA,160929.560,4925.718,N,00745.051,E,1,12,1.0,0.0,M,0.0,M,,*6E
$GPGSA,A,3,01,02,03,04,05,06,07,08,09,10,11,12,1.0,1.0,1.0*30
$GPRMC,160929.560,A,4925.718,N,00745.051,E,053.3,078.1,300124,000.0,W*75
$GPGGA,160930.560,4925.723,N,00745.072,E,1,12,1.0,0.0,M,0.0,M,,*6F
$GPGSA,A,3,01,02,03,04,05,06,07,08,09,10,11,12,1.0,1.0,1.0*30
$GPRMC,160930.560,A,4925.723,N,00745.072,E,058.9,042.2,300124,000.0,W*7F
$GPGGA,160931.560,4925.737,N,00745.085,E,1,12,1.0,0.0,M,0.0,M,,*63
$GPGSA,A,3,01,02,03,04,05,06,07,08,09,10,11,12,1.0,1.0,1.0*30
$GPRMC,160931.560,A,4925.737,N,00745.085,E,062.2,331.6,300124,000.0,W*72
$GPGGA,160932.560,4925.753,N,00745.076,E,1,12,1.0,0.0,M,0.0,M,,*6E
$GPGSA,A,3,01,02,03,04,05,06,07,08,09,10,11,12,1.0,1.0,1.0*30
$GPRMC,160932.560,A,4925.753,N,00745.076,E,054.2,290.3,300124,000.0,W*75
$GPGGA,160933.560,4925.760,N,00745.056,E,1,12,1.0,0.0,M,0.0,M,,*6D
$GPGSA,A,3,01,02,03,04,05,06,07,08,09,10,11,12,1.0,1.0,1.0*30
$GPRMC,160933.560,A,4925.760,N,00745.056,E,062.6,269.5,300124,000.0,W*77
$GPGGA,160934.560,4925.760,N,00745.029,E,1,12,1.0,0.0,M,0.0,M,,*62
$GPGSA,A,3,01,02,03,04,05,06,07,08,09,10,11,12,1.0,1.0,1.0*30
$GPRMC,160934.560,A,4925.760,N,00745.029,E,132.9,241.7,300124,000.0,W*7B
$GPGGA,160935.560,4925.737,N,00744.986,E,1,12,1.0,0.0,M,0.0,M,,*6C
$GPGSA,A,3,01,02,03,04,05,06,07,08,09,10,11,12,1.0,1.0,1.0*30
$GPRMC,160935.560,A,4925.737,N,00744.986,E,158.9,204.5,300124,000.0,W*7A
$GPGGA,160936.560,4925.694,N,00744.966,E,1,12,1.0,0.0,M,0.0,M,,*69
$GPGSA,A,3,01,02,03,04,05,06,07,08,09,10,11,12,1.0,1.0,1.0*30
$GPRMC,160936.560,A,4925.694,N,00744.966,E,186.0,137.7,300124,000.0,W*74
$GPGGA,160937.560,4925.650,N,00745.007,E,1,12,1.0,0.0,M,0.0,M,,*6F
$GPGSA,A,3,01,02,03,04,05,06,07,08,09,10,11,12,1.0,1.0,1.0*30
$GPRMC,160937.560,A,4925.650,N,00745.007,E,257.8,094.0,300124,000.0,W*7A
$GPGGA,160938.560,4925.642,N,00745.116,E,1,12,1.0,0.0,M,0.0,M,,*62
$GPGSA,A,3,01,02,03,04,05,06,07,08,09,10,11,12,1.0,1.0,1.0*30
$GPRMC,160938.560,A,4925.642,N,00745.116,E,288.7,065.9,300124,000.0,W*7D
$GPGGA,160939.560,4925.688,N,00745.218,E,1,12,1.0,0.0,M,0.0,M,,*68
$GPGSA,A,3,01,02,03,04,05,06,07,08,09,10,11,12,1.0,1.0,1.0*30
$GPRMC,160939.560,A,4925.688,N,00745.218,E,262.1,012.6,300124,000.0,W*7A
$GPGGA,160940.560,4925.760,N,00745.234,E,1,12,1.0,0.0,M,0.0,M,,*6F
$GPGSA,A,3,01,02,03,04,05,06,07,08,09,10,11,12,1.0,1.0,1.0*30
$GPRMC,160940.560,A,4925.760,N,00745.234,E,240.4,311.3,300124,000.0,W*7D
$GPGGA,160941.560,4925.813,N,00745.173,E,1,12,1.0,0.0,M,0.0,M,,*65
$GPGSA,A,3,01,02,03,04,05,06,07,08,09,10,11,12,1.0,1.0,1.0*30
$GPRMC,160941.560,A,4925.813,N,00745.173,E,357.6,293.6,300124,000.0,W*7C
$GPGGA,160942.560,4925.869,N,00745.046,E,1,12,1.0,0.0,M,0.0,M,,*6C
$GPGSA,A,3,01,02,03,04,05,06,07,08,09,10,11,12,1.0,1.0,1.0*30
$GPRMC,160942.560,A,4925.869,N,00745.046,E,423.6,267.1,300124,000.0,W*7D
$GPGGA,160943.560,4925.859,N,00744.866,E,1,12,1.0,0.0,M,0.0,M,,*65
$GPGSA,A,3,01,02,03,04,05,06,07,08,09,10,11,12,1.0,1.0,1.0*30
$GPRMC,160943.560,A,4925.859,N,00744.866,E,544.2,246.7,300124,000.0,W*75
$GPGGA,160944.560,4925.776,N,00744.672,E,1,12,1.0,0.0,M,0.0,M,,*6B
$GPGSA,A,3,01,02,03,04,05,06,07,08,09,10,11,12,1.0,1.0,1.0*30
$GPRMC,160944.560,A,4925.776,N,00744.672,E,793.3,217.0,300124,000.0,W*71
$GPGGA,160945.560,4925.578,N,00744.523,E,1,12,1.0,0.0,M,0.0,M,,*61
$GPGSA,A,3,01,02,03,04,05,06,07,08,09,10,11,12,1.0,1.0,1.0*30
$GPRMC,160945.560,A,4925.578,N,00744.523,E,925.0,177.6,300124,000.0,W*78
$GPGGA,160946.560,4925.322,N,00744.534,E,1,12,1.0,0.0,M,0.0,M,,*6D
$GPGSA,A,3,01,02,03,04,05,06,07,08,09,10,11,12,1.0,1.0,1.0*30
$GPRMC,160946.560,A,4925.322,N,00744.534,E,1346.5,126.4,300124,000.0,W*49
$GPGGA,160947.560,4925.042,N,00744.915,E,1,12,1.0,0.0,M,0.0,M,,*66
$GPGSA,A,3,01,02,03,04,05,06,07,08,09,10,11,12,1.0,1.0,1.0*30
$GPRMC,160947.560,A,4925.042,N,00744.915,E,2629.7,097.6,300124,000.0,W*46
$GPGGA,160948.560,4924.896,N,00746.014,E,1,12,1.0,0.0,M,0.0,M,,*63
$GPGSA,A,3,01,02,03,04,05,06,07,08,09,10,11,12,1.0,1.0,1.0*30
$GPRMC,160948.560,A,4924.896,N,00746.014,E,3056.0,055.5,300124,000.0,W*46
$GPGGA,160949.560,4925.511,N,00746.913,E,1,12,1.0,0.0,M,0.0,M,,*6F
$GPGSA,A,3,01,02,03,04,05,06,07,08,09,10,11,12,1.0,1.0,1.0*30
$GPRMC,160949.560,A,4925.511,N,00746.913,E,3056.0,055.5,300124,000.0,W*4A
